,City,Country,Temperature (F),Latitude,Longitude,Humidity (%),Cloudiness (%),Wind Speed (mph)
0,Loa Janan,ID,72.59,-0.58,117.09,90,50,1.43
1,Lata,IN,22.19,30.78,78.62,67,0,11.01
2,Capanema,BR,68.9,-25.67,-53.8,100,90,8.05
3,Hilo,US,77.14,19.71,-155.08,57,40,4.7
4,Roald,NO,49.51,62.58,6.12,93,75,4.7
5,Avarua,CK,77,-21.21,-159.78,61,7,11.41
6,Port Alfred,ZA,62.01,-33.59,26.89,94,100,1.99
7,Tasiilaq,GL,22.73,65.61,-37.64,88,29,2.98
8,Bredasdorp,ZA,62.6,-34.53,20.04,72,1,10.29
9,Kaitangata,NZ,46,-46.28,169.85,91,33,1.99
10,Grants,US,68,35.15,-107.85,14,40,12.75
11,Praia,BR,82.98,-20.25,-43.81,45,20,9.17
12,Port Blair,IN,84.11,11.67,92.75,73,34,4.29
13,Torbay,CA,50.49,47.66,-52.73,93,90,27.51
14,Rikitea,PF,79.61,-23.12,-134.97,81,56,13.62
15,Albany,US,64.04,42.65,-73.75,63,75,8.05
16,Butaritari,KI,82.85,3.07,172.79,80,100,19.06
17,Dikson,RU,15.53,73.51,80.55,96,100,7.54
18,Anloga,GH,86,5.79,0.9,74,20,9.17
19,Salalah,OM,82.4,17.01,54.1,74,40,9.17
20,Caucaia,BR,82.11,-3.73,-38.66,74,40,5.82
21,Punta Arenas,CL,51.4,-53.16,-70.91,66,0,26.4
22,Nikolskoye,RU,38.71,59.7,30.79,60,0,4.47
23,Atuona,PF,83.57,-9.8,-139.03,77,19,13.56
24,Kropotkin,RU,44.69,45.43,40.58,61,88,12.59
25,Ushuaia,AR,46.4,-54.81,-68.31,81,75,18.34
26,Aktau,KZ,37.4,43.65,51.16,64,0,4.47
27,Oga,NG,85.73,8.18,5.65,56,82,10.36
28,Mataura,NZ,44.01,-46.19,168.86,96,21,2.19
29,Qaanaaq,GL,5.27,77.48,-69.36,91,100,4.9
30,Murgab,TM,55.4,37.5,61.97,87,75,7.38
31,Mattru,SL,81.77,7.62,-11.83,82,64,4.47
32,Alzamay,RU,27.05,55.55,98.67,71,96,10.87
33,La Orilla,MX,82.85,18,-102.23,62,3,10.51
34,Vao,EE,43.79,59.1,26.19,62,0,5.59
35,Souillac,FR,57.47,45.6,-0.6,72,98,2.24
36,Hithadhoo,MV,83.57,-0.6,73.08,77,100,16.11
37,Touros,BR,82.4,-5.2,-35.46,83,40,6.93
38,Hofn,IS,29.21,64.25,-15.21,92,100,3.76
39,Erenhot,CN,61.25,43.65,111.97,25,100,15.97
40,Tahara,JP,60.67,34.64,137.18,93,75,4.7
41,Upernavik,GL,17.51,72.79,-56.15,89,100,13.42
42,Abay,KZ,24.8,49.63,72.87,92,0,6.71
43,Muisne,EC,80.6,0.61,-80.02,83,75,4.7
44,Provideniya,RU,10.4,64.42,-173.23,66,0,17.9
45,Cape Town,ZA,63.63,-33.93,18.42,59,20,20.8
46,Arlit,NE,82.67,18.74,7.39,8,0,2.77
47,Makakilo City,US,79.43,21.35,-158.09,51,40,9.17
48,Nemuro,JP,39.83,43.32,145.57,74,100,8.9
49,Sao Joao da Barra,BR,85.06,-21.64,-41.05,66,0,11.41
50,Bluff,AU,65.57,-23.58,149.07,86,61,13.69
51,Ukwa,NG,80.33,5.47,8.01,82,100,5.68
52,Rabo de Peixe,PT,60.8,37.8,-25.58,72,20,11.41
53,Busselton,AU,40.68,-33.64,115.35,66,10,8.59
54,Hobart,AU,53.58,-42.88,147.33,54,40,10.29
55,Buchanan,LR,82.4,5.88,-10.05,83,40,8.14
56,Bambous Virieux,MU,77.36,-20.34,57.76,94,75,11.41
57,Silifke,TR,46.49,36.38,33.93,52,2,13.06
58,Gigmoto,PH,80.87,13.78,124.39,76,53,12.21
59,Omsukchan,RU,22.73,62.53,155.8,93,49,7.85
60,Muli,IN,82.67,22.62,71.45,45,0,11.05
61,Padang,ID,83.75,-0.92,100.36,71,100,3.8
62,San Patricio,PY,78.35,-26.98,-56.83,83,100,4.94
63,Tahe,CN,24.17,52.34,124.71,49,0,1.66
64,East London,ZA,60.35,-33.02,27.91,92,100,7.56
65,Pyapon,MM,82.13,16.29,95.68,63,20,8.21
66,Hermanus,ZA,62.76,-34.42,19.24,83,0,3
67,Saldanha,PT,57.47,41.42,-6.55,58,97,3.09
68,Esperance,TT,83.48,10.24,-61.45,58,40,17.22
69,Bethel,US,25.21,60.79,-161.76,79,90,13.87
70,Ust-Koksa,RU,18.77,50.27,85.62,97,100,3.49
71,Thompson,CA,30.2,55.74,-97.86,80,90,4.7
72,Bandarbeyla,SO,80.33,9.49,50.81,76,63,7.85
73,Kruisfontein,ZA,58.37,-34,24.73,88,75,6.11
74,Tiksi,RU,16.79,71.64,128.87,76,53,6.67
75,Markkleeberg,DE,53.58,51.28,12.37,41,0,8.05
76,Brigantine,US,63.59,39.41,-74.36,55,1,11.41
77,Maceio,BR,80.6,-9.67,-35.74,69,20,6.93
78,Taonan,CN,48.11,45.34,122.78,16,28,8.48
79,Grass Valley,US,68.45,39.22,-121.06,55,1,12.75
80,Ponta do Sol,BR,69.35,-20.63,-46,77,42,2.35
81,Meulaboh,ID,82.13,4.14,96.13,79,66,2.51
82,Castro,CL,50,-42.48,-73.76,81,90,4.7
83,Moindou,NC,73.4,-21.69,165.68,83,0,1.12
84,Kapaa,US,77.97,22.08,-159.32,65,1,17.22
85,Taseyevo,RU,19.85,57.22,94.9,89,3,8.5
86,Keetmanshoop,NA,71.6,-26.57,18.15,24,0,8.05
87,Ushibuka,JP,64.31,32.19,130.02,72,82,4.79
88,Tuktoyaktuk,CA,26.6,69.44,-133.03,79,20,13.87
89,Kitimat,CA,45.43,54.02,-128.69,70,90,19.46
90,Saskylakh,RU,4.01,71.97,114.09,97,92,8.43
91,Celestun,MX,79.25,20.87,-90.4,66,0,19.19
92,Xam Nua,LA,66.47,20.42,104.04,84,0,2.53
93,Vaini,IN,74.93,15.34,74.49,77,3,2.13
94,Ixtapa,MX,81.21,20.71,-105.21,69,5,12.75
95,Goundam,ML,92.93,16.42,-3.66,13,0,3.85
96,Nanortalik,GL,30.65,60.14,-45.24,86,19,10.71
97,Rio Gallegos,AR,59,-51.62,-69.22,41,0,17.22
98,Sorong,ID,76.37,-0.86,131.25,94,83,1.9
99,Richards Bay,ZA,72.77,-28.77,32.06,78,100,20.58
100,Ilulissat,GL,28.4,69.22,-51.1,86,90,9.17
101,Amiens,FR,58.84,49.89,2.3,55,0,6.93
102,Cap Malheureux,MU,77.65,-19.98,57.61,94,75,11.41
103,Shizunai,JP,45.05,42.33,142.37,65,44,3.09
104,Sangar,RU,17.51,63.92,127.47,90,68,5.17
105,Sibolga,ID,83.03,1.74,98.78,76,100,2.89
106,Riyadh,SA,75.2,24.63,46.72,38,0,3.36
107,Vila Franca do Campo,PT,60.8,37.72,-25.43,72,20,11.41
108,Port Elizabeth,US,66.15,39.31,-74.98,63,90,6.93
109,Meadow Lake,CA,51.8,54.13,-108.44,37,75,4.7
110,Jamestown,AU,54.77,-33.21,138.6,70,21,7.78
111,Tura,IN,76.91,25.52,90.21,52,94,4.38
112,Mikuni,JP,55.4,36.22,136.15,76,75,8.05
113,Lasa,CY,57.45,34.92,32.53,54,20,12.75
114,Kavieng,PG,82.49,-2.57,150.8,76,41,1.07
115,Mutoko,ZW,61.43,-17.4,32.23,65,0,1.92
116,Georgetown,GY,86.97,6.8,-58.16,70,40,16.11
117,Hoa Binh,VN,77,20.81,105.34,78,0,5.82
118,Codrington,AU,58.6,-28.95,153.24,100,90,1.12
119,Flinders,AU,63.39,-34.58,150.85,100,100,2.19
120,Bima,ID,72.23,-8.45,118.73,97,100,2.53
121,Valparaiso,US,75.6,41.47,-87.06,24,1,8.05
122,San-Pedro,CI,76.37,4.75,-6.64,96,100,3.87
123,Galle,US,82.36,29.74,-97.91,48,1,17.22
124,Cidreira,BR,66.83,-30.17,-50.22,73,100,10.98
125,Lebu,ET,60.35,8.96,38.73,77,49,3.33
126,Puerto Ayora,EC,82.98,-0.74,-90.35,70,75,9.17
127,Saint-Philippe,CA,60.26,45.36,-73.48,77,90,8.05
128,Tilichiki,RU,25.97,60.47,166.1,67,0,5.86
129,Frontignan,FR,56.35,43.45,3.75,71,0,8.05
130,Segezha,RU,41.09,63.74,34.31,78,100,11.03
131,Emba,CY,57.4,34.81,32.42,54,20,12.75
132,Sheridan,US,58.12,39.65,-105.03,36,75,10.29
133,Victoria,BN,80.78,5.28,115.24,88,75,1.12
134,Birao,CF,86.63,10.3,22.78,11,0,7.87
135,Zurrieq,MT,60.57,35.83,14.47,82,0,27.51
136,Sinnamary,GF,81.23,5.38,-52.96,76,77,15.12
137,Kuryk,KZ,48.65,43.18,51.68,57,0,1.32
138,Zhezkazgan,KZ,37.85,47.8,67.71,60,94,8.12
139,Ayan,TR,25.07,40.67,33.6,98,59,5.41
140,Cabo San Lucas,MX,80.82,22.89,-109.91,42,75,2.24
141,Gazanjyk,TM,55.13,39.24,55.52,51,0,10.89
142,Rafai,CF,77.09,4.95,23.92,28,71,2.28
143,Margate,AU,53.62,-43.03,147.26,54,40,10.29
144,Tamandare,BR,82.13,-8.28,-70.75,93,100,2.77
145,Boende,CD,74.21,-0.28,20.88,95,100,3.2
146,Gizo,IL,52.68,31.8,34.94,50,40,11.41
147,Severo-Kurilsk,RU,34.43,50.68,156.12,91,96,18.52
148,Kodiak,US,84.38,39.95,-94.76,28,1,28.86
149,Cabedelo,BR,82.4,-6.97,-34.84,74,20,10.29
150,Zhigansk,RU,15.35,66.77,123.37,89,80,7.43
151,Chokurdakh,RU,15.35,70.62,147.9,80,99,16.22
152,Isangel,VU,79.43,-19.55,169.27,84,100,16.6
153,Vila Velha,BR,82.11,-3.71,-38.6,74,40,5.82
154,Shalinskoye,RU,22.91,55.72,93.76,77,11,7.36
155,San Ciro de Acosta,MX,95.09,21.65,-99.82,14,0,9.82
156,Tiangua,BR,75.47,-3.73,-40.99,94,100,3.29
157,Kieta,PG,82.67,-6.22,155.63,74,54,3.4
158,Yellowknife,CA,32,62.45,-114.38,60,75,4.7
159,Moron,VE,84.11,10.49,-68.2,61,47,7.78
160,Ostrovnoy,RU,38.21,68.05,39.51,91,100,19.55
161,Yelizovo,RU,30.2,53.19,158.38,80,75,4.47
162,Strezhevoy,RU,32,60.73,77.6,95,0,4.47
163,Hasaki,JP,54.21,35.73,140.83,93,75,1.12
164,Port Macquarie,AU,57.79,-31.43,152.91,93,98,1.86
165,Nagornskiy,RU,35.01,58.77,57.55,50,100,5.39
166,Bara,NG,88.61,10.41,10.6,17,67,1.59
167,Lorengau,PG,78.71,-2.02,147.27,91,63,2.3
168,Tessalit,ML,91.49,20.2,1.01,11,0,8.57
169,Half Moon Bay,US,64.72,37.46,-122.43,63,20,13.87
170,Moussoro,TD,94.55,13.64,16.49,8,3,13.04
171,Ancud,CL,50,-41.87,-73.83,81,90,4.7
172,Neyvo-Shaytanskiy,RU,39.65,57.73,61.25,86,96,6.04
173,Namibe,AO,73.13,-15.19,12.15,78,72,5.79
174,Vardo,US,63.59,39.62,-77.74,48,90,4.7
175,Takahagi,JP,54.84,36.74,140.69,100,75,1.12
176,Barrow,AR,59.63,-38.31,-60.23,58,0,8.39
177,Saint-Louis,CH,55.53,47.59,7.56,66,0,2.24
178,Brae,GB,52.3,60.4,-1.35,76,59,17.22
179,Pasni,PK,81.95,25.26,63.48,59,0,3.38
180,Cherskiy,RU,10.13,68.75,161.3,80,19,4.18
181,Sao Jose da Coroa Grande,BR,76.37,-8.9,-35.15,79,55,3.78
182,Harper,US,80.04,30.3,-99.24,44,1,12.75
183,Vestmannaeyjar,IS,43.43,63.44,-20.27,76,100,9.31
184,Lewisporte,CA,53.44,49.25,-55.06,93,90,10.29
185,Wilmington,US,66.25,39.75,-75.55,39,75,6.93
186,De-Kastri,RU,32.99,51.48,140.77,69,24,8.72
187,Guarapari,BR,83.55,-20.67,-40.5,74,20,11.41
188,Saint George,GR,50.86,39.45,22.34,81,75,1.28
189,Arraial do Cabo,BR,84.25,-22.97,-42.02,74,0,8.05
190,San Carlos de Bariloche,AR,66.2,-41.13,-71.31,25,0,8.05
191,Zaraza,VE,90.95,9.35,-65.33,43,79,14.14
192,Saint-Augustin,FR,58.03,44.83,-0.61,62,0,8.05
193,Coquimbo,CL,60.8,-29.95,-71.34,72,0,10.29
194,Were Ilu,ET,69.89,10.6,39.43,55,26,5.99
195,Kichmengskiy Gorodok,RU,39.11,59.99,45.81,93,47,4.81
196,Kiomboi,TZ,72.41,-4.28,34.41,75,100,0.87
197,Samarinda,ID,72.59,-0.5,117.14,90,50,1.43
198,Thalgau,AT,51.64,47.84,13.25,61,0,3.36
199,Praia da Vitoria,PT,62.31,38.73,-27.07,82,75,11.45
200,Mareeba,AU,70.27,-16.99,145.42,83,75,8.05
201,Azare,NG,89.51,11.67,10.19,14,51,7.18
202,San Quintin,PH,77.81,17.54,120.52,80,0,2.46
203,Numan,NG,96.89,9.46,12.04,20,30,3.53
204,Bogandinskiy,RU,37.4,56.89,65.89,69,40,4.47
205,Mayumba,GA,81.77,-3.44,10.65,83,100,6.76
206,Katherine,AU,68,-14.47,132.26,88,53,4.7
207,Klaksvik,FO,46.4,62.23,-6.59,100,100,14.99
208,Agadez,NE,89.6,16.97,7.99,7,1,11.7
209,Tezu,IN,66.65,27.93,96.16,45,3,3.96
210,Kungurtug,RU,23.27,50.6,97.53,81,100,3.87
211,Portland,US,57.36,45.52,-122.67,58,90,4.7
212,Yakeshi,CN,32.63,49.28,120.73,22,100,7.29
213,Mogzon,RU,33.17,51.74,111.97,61,100,2.59
214,Henderson,US,74.43,36.04,-114.98,25,40,5.82
215,Kapustin Yar,RU,47.21,48.58,45.77,35,0,5.97
216,New Norfolk,AU,53.6,-42.78,147.06,54,40,10.29
217,Talnakh,RU,10.4,69.49,88.39,85,75,22.37
218,Harsum,DE,54.68,52.21,9.96,41,0,3.36
219,Banepa,NP,59,27.63,85.52,87,40,4.7
220,Gravelbourg,CA,55.31,49.88,-106.56,24,0,12.82
221,Howard Springs,AU,76.41,-12.5,131.05,88,20,4.7
222,Marienburg,DE,54.7,52.12,9.98,41,0,3.36
223,College,US,48,64.86,-147.8,31,20,13.87
224,Bayan,MN,42.17,47.25,107.54,55,74,7.56
225,Wewak,PG,76.91,-3.55,143.63,88,92,0.63
226,Harer,US,48.88,42.19,-111.17,75,90,6.93
227,Pa Sang,TH,76.12,18.53,98.94,83,20,4.7
228,Oshakati,NA,82.4,-17.78,15.7,32,8,3.36
229,Sazonovo,RU,37,54.2,39.81,46,0,3.85
230,Kedrovyy,RU,21.2,56.17,91.82,73,40,8.95
231,Muncar,ID,72.41,-8.43,114.34,96,65,2.3
232,Sayyan,YE,70.43,15.17,44.32,73,45,4.12
233,Pagudpud,PH,81.41,18.56,120.79,82,0,8.93
234,Cockburn Town,TC,79.43,21.46,-71.14,78,36,14.83
235,Monte Gordo,ES,63.95,37.18,-7.45,72,20,5.82
236,Dzerzhinskoye,RU,22.01,56.84,95.22,78,0,8.95
237,Kenai,US,41.76,60.55,-151.26,65,75,26.4
238,Buala,SB,82.67,-8.15,159.59,79,100,10.98
239,Hualmay,PE,68.63,-11.1,-77.61,94,16,12.82
240,Mar del Plata,AR,65.03,-46.43,-67.52,32,9,5.41
241,Lompoc,US,65.34,34.64,-120.46,72,20,18.34
242,Bambanglipuro,ID,81.95,-7.95,110.28,80,100,10.47
243,Burnie,AU,50,-41.05,145.91,82,98,1.99
244,Shingu,JP,55.49,33.72,135.99,99,99,2.24
245,Vanimo,PG,80.69,-2.67,141.3,82,100,7.74
246,Pevek,RU,-0.13,69.7,170.27,90,5,6.67
247,Kaduy,RU,33.8,59.2,37.15,73,0,2.66
248,Yulara,AU,51.8,-25.24,130.99,53,0,5.82
249,Arrifes,PT,60.8,37.77,-25.7,72,20,11.41
250,Belaya Gora,RU,23.27,68.54,146.19,92,99,7.63
251,Timbuktu,ML,91.67,16.77,-3.01,11,0,3.65
252,Ondangwa,NA,82.4,-17.91,15.98,32,8,3.36
253,Abapo,BO,87.71,-18.83,-63.47,51,97,5.59
254,Naze,NG,82.4,5.43,7.07,83,75,2.24
255,Marseille,FR,63.57,43.3,5.37,39,0,8.05
256,Leirvik,NO,53.13,59.78,5.5,57,0,14.99
257,Cuamba,MZ,67.73,-14.8,36.54,82,67,7.09
258,Tromso,NO,39.2,69.65,18.96,86,75,36.91
259,Farah,AF,74.21,32.37,62.11,40,0,6.29
260,Grindavik,IS,44.58,63.84,-22.43,70,75,8.05
261,Dukat,RS,46.99,42.44,22.31,58,0,3.85
262,Batemans Bay,AU,53.65,-35.71,150.18,95,100,2.17
263,Necochea,AR,60.01,-38.55,-58.74,67,44,4
264,Amapa,HN,86.49,15.09,-87.97,55,40,14.99
265,Leningradskiy,RU,1.85,69.38,178.42,89,100,20.49
266,Bubaque,GW,76.91,11.28,-15.83,71,74,18.07
267,Faya,SA,65.34,18.39,42.45,82,0,8.05
268,Kolpashevo,RU,17.87,58.31,82.9,88,0,5.59
269,Luderitz,NA,59,-26.65,15.16,77,0,12.75
270,Valentin Gomez Farias,MX,83.68,24.05,-104.7,7,75,14.99
271,Karratha,AU,71.69,-20.74,116.85,18,1,17.92
272,Road Town,VG,79.72,18.42,-64.62,65,40,11.41
273,Zheleznodorozhnyy,RU,47.8,55.75,38,45,0,2.24
274,Norden,DE,54.01,53.59,7.21,58,0,9.17
275,Dubbo,AU,60.8,-32.25,148.6,82,100,5.82
276,Piopio,CL,50,-42.79,-73.57,93,53,4.7
277,Guiyang,CN,60.8,26.58,106.71,100,90,2.24
278,Viedma,AR,61.07,-40.81,-62.99,53,18,6.71
279,Khatanga,RU,-8.06,71.98,102.47,99,100,3.09
280,Kjollefjord,NO,40.48,70.95,27.35,80,75,29.97
281,Ribeira Grande,PT,62.6,38.52,-28.7,82,40,4.7
282,Yebaishou,CN,48.29,41.4,119.64,30,99,8.84
283,Oytal,KZ,49.37,42.91,73.27,96,92,5.66
284,Laukaa,FI,46.71,62.42,25.95,45,0,5.82
285,Homer,US,32.34,59.64,-151.54,83,90,4.7
286,Coffeyville,US,81.79,37.04,-95.62,34,1,29.97
287,Chiang Klang,TH,74.03,19.29,100.86,66,0,0.89
288,Constitucion,MX,83.68,23.99,-104.67,7,75,14.99
289,Tuatapere,NZ,44.01,-46.13,167.69,96,1,9.42
290,Sobolevo,RU,46.49,54.43,31.9,67,55,4.74
291,Honningsvag,NO,39.94,70.98,25.97,80,75,41.38
292,Saint Anthony,US,47.79,43.97,-111.68,81,90,11.41
293,Severo-Yeniseyskiy,RU,15.35,60.37,93.04,95,97,7.49
294,Rodrigues Alves,BR,78.8,-7.74,-72.65,94,75,11.41
295,Sao Filipe,CV,71.69,14.9,-24.5,82,0,17.4
296,Kudahuvadhoo,MV,85.55,2.67,72.89,73,100,12.75
297,Alice Springs,AU,57.2,-23.7,133.88,58,0,8.05
298,Port-Cartier,CA,38.14,50.03,-66.88,93,90,2.24
299,Tautira,PF,86,-17.73,-149.15,70,75,6.93
300,Svetlaya,RU,34.97,46.54,138.33,35,0,6.49
301,Haftoni,AZ,37.65,38.76,48.76,100,90,2.62
302,Oistins,BB,84.2,13.07,-59.53,62,40,18.34
303,Faanui,PF,83.75,-16.48,-151.75,73,100,6.26
304,Kielce,PL,50.52,50.87,20.63,1,79,7.78
305,Dali,CN,47.93,25.6,100.24,61,0,3.36
306,Pisco,PE,74.25,-13.71,-76.2,30,0,6.93
307,Champawat,IN,58.01,29.34,80.09,74,1,3.69
308,Carnarvon,ZA,54.95,-30.97,22.13,58,0,26.37
309,Srednekolymsk,RU,22.91,67.46,153.71,80,27,12.95
310,Pestovo,RU,48.54,55.36,37.98,52,0,4.56
311,Novikovo,UA,38.21,45.05,34.56,75,24,4.25
312,Luganville,VU,77,-15.51,167.18,100,40,4.7
313,Mahebourg,MU,77.29,-20.41,57.7,94,75,11.41
314,Tiznit,MA,63.77,29.7,-9.73,85,1,20.62
315,Rawson,AR,63.77,-43.3,-65.11,35,0,5.35
316,Newport,GB,56.08,51.59,-3,44,0,3.36
317,Juneau,US,43.23,58.3,-134.42,81,90,12.75
318,Singkang,MY,80.15,2.1,102.8,88,75,7.87
319,Tlacotepec,MX,77,18.96,-99.93,22,40,9.17
320,Imbituba,BR,80.6,-28.24,-48.67,57,75,4.7
321,Te Anau,NZ,43.07,-45.41,167.72,80,1,1.88
322,Kailua,US,79.45,21.39,-157.74,69,75,11.41
323,Maniitsoq,GL,29.03,65.42,-52.9,86,99,15.3
324,Hokitika,NZ,59.63,-42.72,170.96,59,1,5.35
325,Hobyo,SO,83.21,5.35,48.53,75,48,13.15
326,Vrangel,RU,39.65,42.73,133.08,37,0,5.03
327,Setermoen,NO,39.63,68.86,18.35,96,75,29.97
328,Yenangyaung,MM,83.03,20.46,94.87,36,0,4.92
329,Bahia Honda,CU,75.29,22.9,-83.16,57,0,14.41
330,Cayenne,GF,84.2,4.94,-52.33,70,20,13.87
331,Qingdao,CN,53.6,36.09,120.35,93,75,3.51
332,Barcelos,PT,60.6,41.53,-8.62,77,0,3.36
333,Caravelas,BR,80.33,-17.73,-39.27,77,17,6.96
334,Bielsk Podlaski,PL,44.67,52.77,23.19,85,83,1.01
335,Trinidad,UY,62.87,-33.52,-56.9,59,0,9.71
336,Skala,GR,55.29,36.85,22.66,81,75,1.25
337,Sorland,NO,42.8,67.67,12.69,75,40,8.05
338,Kurchum,KZ,38.03,48.57,83.65,66,100,8.57
339,Teeli,RU,29.03,51.01,90.2,60,32,3.27
340,Nova Olimpia,BR,85.73,-14.8,-57.29,69,100,1.9
341,Chuy,UY,64.13,-33.69,-53.46,62,0,15.19
342,Chateaubelair,VC,82.67,13.28,-61.25,69,20,13.87
343,Hvide Sande,DK,48,56.01,8.13,57,0,1.12
344,Nuuk,GL,32,64.17,-51.74,77,75,12.75
345,Hambantota,LK,83.03,6.12,81.12,79,98,8.25
346,Corrientes,AR,76.14,-27.47,-58.83,83,90,2.24
347,Baykit,RU,20.75,61.68,96.39,90,100,10.27
348,Santa Maria,BR,69.8,-29.69,-53.81,88,90,8.05
349,Port Lincoln,AU,60.17,-34.72,135.86,59,100,8.57
350,Larsnes,NO,49.93,62.2,5.58,93,75,4.7
351,San Cristobal,EC,56.12,-0.39,-78.55,82,75,6.93
352,Lagoa,PT,62.58,37.14,-8.45,72,20,5.82
353,Sucre,BO,69.8,-19.05,-65.26,43,20,16.11
354,Mahabad,IR,44.33,36.77,45.72,60,68,2.75
355,Umm Lajj,SA,74.21,25.02,37.27,52,0,24.23
356,Lulea,SE,44.6,65.58,22.15,75,0,5.82
357,Kambove,CD,63.59,-10.88,26.6,95,100,3.67
358,Ouango,CD,76.91,4.31,22.55,42,51,0.83
359,Zabid,YE,67.91,14.2,44.5,84,100,4.07
360,Zhireken,RU,29.21,52.82,117.29,32,99,3.2
361,Tartagal,AR,73.4,-22.52,-63.8,88,75,6.93
362,Wattegama,LK,73.49,7.35,80.68,92,64,1.52
363,Guilin,CN,71.6,25.28,110.29,83,90,6.71
364,Nytva,RU,41,57.94,55.33,56,0,8.95
365,Lingao,CN,79.97,19.91,109.69,84,1,7.27
366,Fortuna,ES,56.68,38.18,-1.13,72,75,9.17
367,Dubti,ET,87.53,11.74,41.09,40,18,16.82
368,Nesna,NO,38.97,66.2,13.02,80,75,11.43
369,Shelburne,CA,55.42,44.08,-80.2,58,20,6.93
370,Bonavista,CA,42.01,48.65,-53.11,84,98,4
371,Buraydah,SA,73.4,26.33,43.97,16,0,16.11
372,Yilan,TW,74.25,24.75,121.75,88,20,6.93
373,Caceres,CO,82.85,5.53,-74.53,40,100,3.69
374,Bosaso,SO,82.85,11.28,49.18,72,33,3.49
375,Comodoro Rivadavia,AR,64.4,-45.87,-67.48,39,0,8.05
376,Vestmanna,FO,46.4,62.16,-7.17,100,100,14.99
377,Vostok,RU,32.63,46.45,135.83,42,0,3.49
378,Ossora,RU,31.55,59.24,163.07,77,49,0.69
379,Nichinan,JP,57,31.65,131.31,78,2,2.39
380,Airai,TL,73.31,-8.93,125.41,72,59,6.24
381,Fagernes,NO,35.51,60.99,9.24,80,86,3.18
382,Yaan,NG,92.57,7.38,8.57,37,99,6.98
383,Walvis Bay,NA,57.74,-22.95,14.51,82,49,2.24
384,Khani,GE,42.8,41.96,42.96,93,75,2.24
385,Khasan,RU,42.53,42.43,130.64,30,0,4.72
386,Pacific Grove,US,65.14,36.62,-121.92,49,1,9.17
387,Swellendam,ZA,64.4,-34.02,20.44,72,28,10.29
388,Manta,RO,47.75,45.1,24.1,81,98,2.8
389,Mayya,RU,17.6,61.74,130.28,100,0,2.24
390,Wagar,US,78.66,31.44,-87.99,24,0,2.46
391,Yichun,CN,31.55,47.72,128.88,40,98,2.28
392,Mao,DO,85.84,19.55,-71.08,48,40,18.34
393,Rocha,UY,57.47,-34.48,-54.34,67,0,6.15
394,Trairi,BR,75.29,-3.28,-39.27,96,100,3.27
395,Antofagasta,CL,66.2,-23.65,-70.4,63,20,16.11
396,Sunrise Manor,US,74.53,36.21,-115.07,25,40,5.82
397,Zapolyarnyy,RU,39.2,69.43,30.82,69,0,33.33
398,Mehriz,IR,69.8,31.58,54.44,13,0,2.24
399,Isiro,CD,73.67,2.77,27.62,57,61,1.45
400,Verkhnyaya Inta,RU,35.33,65.99,60.32,95,99,15.14
401,Saint-Joseph,FR,61.12,43.56,6.97,72,0,1.12
402,Goderich,CA,53.55,43.74,-81.71,67,19,3
403,Taoudenni,ML,83.21,22.68,-3.98,12,0,11.61
404,Maragogi,BR,76.37,-9.01,-35.22,79,55,3.78
405,Coihaique,CL,58.46,-45.58,-72.07,62,0,2.33
406,Bonthe,SL,83.39,7.53,-12.5,77,37,7.92
407,Tema,GH,84.2,5.66,-0.01,79,0,11.41
408,Barentu,ER,81.05,15.11,37.59,27,65,4.5
409,Qitaihe,CN,37.13,45.77,131.01,32,0,1.95
410,Porto Novo,BR,78.8,-23.68,-45.44,69,40,9.82
411,Boyolangu,ID,72.23,-8.09,111.9,96,52,2.77
412,Lexington Park,US,64.54,38.26,-76.45,59,40,9.17
413,Kirakira,SB,81.41,-10.46,161.92,78,100,2.95
414,Nome,US,77.09,30.04,-94.42,44,1,12.75
415,Acapulco,MX,84.2,16.86,-99.88,70,5,5.82
416,Talas,TR,37.11,38.69,35.55,64,75,2.24
417,Inuvik,CA,41,68.36,-133.71,52,20,9.17
418,Rangapara,IN,64.13,26.82,92.69,57,2,4.32
419,Poretskoye,RU,49.37,55.2,46.33,51,97,0.67
420,High Rock,BS,77,26.63,-78.28,50,40,10.29
421,Kang,BW,67.37,-23.67,22.79,58,100,27.45
422,Alamosa,US,58.93,37.47,-105.87,11,40,16.11
423,Dingle,PH,73.85,11,122.67,89,34,7.36
424,Zonguldak,TR,48.29,41.25,31.83,64,72,0.98
425,Itamaraju,BR,74.57,-17.04,-39.53,87,9,5.66
426,Rome,IT,59.92,41.89,12.48,58,0,4.7
427,Manono,CD,73.49,-7.3,27.4,77,93,1.92
428,General Roca,AR,75.2,-39.03,-67.58,29,0,8.05
429,Fougamou,GA,76.73,-1.22,10.59,95,100,3.2
430,Adrar,DZ,77,27.87,-0.29,20,0,11.41
431,Kendari,ID,74.39,-3.99,122.52,96,100,2.68
432,Banposh,IN,76.55,22.25,84.8,57,0,1.36
433,Kiama,AU,64.13,-34.67,150.86,100,94,2.62
434,Black River,JM,80.74,18.03,-77.85,74,40,23.04
435,Xochihuehuetlan,MX,99.41,17.92,-98.43,16,0,3.18
436,Puebloviejo,CO,88.65,10.99,-74.28,49,40,23.04
437,Limon,US,59.34,39.26,-103.69,36,90,19.46
438,Tefe,BR,86,-3.35,-64.71,74,40,5.82
439,Zdvinsk,RU,30.47,54.7,78.67,77,0,1.39
440,Santiago,CL,68.4,-33.44,-70.65,37,0,5.82
441,Algeciras,ES,60.15,36.13,-5.45,77,75,6.93
442,Swift Current,CA,55.4,50.29,-107.8,19,1,20.8
443,Guerrero Negro,MX,59.63,27.97,-114.04,84,95,14.2
444,Mount Gambier,AU,42.8,-37.83,140.78,100,6,8.08
445,Geraldton,CA,42.8,49.72,-86.95,45,20,6.93
446,Susanville,US,57.22,40.42,-120.65,33,1,9.17
447,Xacmaz,AZ,33.71,41.46,48.81,96,47,0.58
448,Belyy Yar,RU,30.2,53.6,91.39,86,40,6.71
449,Pangoa,PE,91.67,-12.12,-73,36,100,5.64
450,Hami,CN,68.81,42.84,93.51,33,97,13.51
451,Broome,GB,49.1,52.47,1.45,81,0,6.93
452,Tokmak,UA,49.55,47.26,35.7,53,100,7.16
453,Mercedes,UY,66.83,-33.25,-58.03,48,0,12.91
454,Neiafu,TO,78.8,-18.65,-173.98,74,75,11.41
455,Porbandar,IN,79.61,21.64,69.61,79,0,12.93
456,Camacha,PT,63.16,33.08,-16.33,77,40,25.28
457,Beringovskiy,RU,8.51,63.05,179.32,82,0,5.35
458,Nyimba,ZM,70.97,-14.56,30.81,69,90,2.48
459,Ahipara,NZ,64.99,-35.17,173.16,100,100,11.56
460,Puerto Suarez,BO,90.41,-18.96,-57.8,59,40,6.93
461,San Ramon,NI,78.49,12.92,-85.84,57,75,12.46
462,Port Hardy,CA,46.4,50.7,-127.42,87,90,11.41
463,Luebo,CD,76.91,-5.35,21.42,69,100,1.01
464,Coahuayana,MX,104.27,18.62,-100.35,12,2,5.39
465,Sur,OM,86.45,22.57,59.53,43,0,11.59
466,Isakly,RU,41.09,54.13,51.53,64,69,1.74
467,Shimoda,JP,60.6,34.7,138.93,89,11,2.71
468,Banswada,IN,92.39,18.38,77.88,28,94,9.1
469,Zhuzhou,CN,66.2,27.84,113.15,82,90,6.71
470,Blagoyevo,RU,36.05,63.37,47.92,89,97,7.52
471,Najran,SA,80.6,17.54,44.22,42,0,4.7
472,San Felipe,CL,69.01,-32.75,-70.73,56,0,1.01
473,Aleksin,RU,44.6,54.5,37.07,45,0,2.57
474,Dryden,CA,59,49.79,-92.84,33,1,6.93
475,Kawai,JP,61,34.58,135.74,93,90,5.82
476,Anadyr,RU,1.18,64.73,177.51,70,0,11.18
477,Mbigou,GA,72.59,-1.9,11.91,97,100,2.64
478,Mandapam,IN,86.09,9.28,79.12,77,100,10.54
479,Montrose,AU,57.78,-37.81,145.34,82,75,11.41
480,Westport,IE,53.56,53.8,-9.52,93,40,9.17
481,Stirling,GB,57.92,56.12,-3.94,47,0,8.05
482,Marsh Harbour,BS,72.59,26.54,-77.06,53,0,8.77
483,Prince Rupert,CA,48.2,54.32,-130.32,70,90,11.61
484,Aykhal,RU,14,65.95,111.51,85,90,4.47
485,Le Mont-sur-Lausanne,CH,51.85,46.56,6.63,66,39,4.7
486,Aguadilla,PR,77.09,18.43,-67.15,94,90,5.82
487,Shahreza,IR,49.19,32.01,51.87,29,0,5.17
488,Longyearbyen,NO,17.6,78.22,15.63,40,0,13.87
489,Naifaru,MV,84.83,5.44,73.37,73,9,11.01
490,San Rafael,AR,64.49,-34.61,-68.33,33,0,10.4
491,Copiapo,CL,64.4,-27.37,-70.33,59,40,9.17
492,Naters,CH,49.53,46.32,7.99,64,100,3.36
493,Palana,RU,29.93,59.08,159.95,90,7,4.59
494,Willowmore,ZA,51.35,-33.3,23.49,92,18,4.36
495,Pedasi,PA,88.61,7.53,-80.03,48,100,5.23
496,Saint-Pierre,FR,53.96,48.95,4.24,55,0,4.7
497,Machico,PT,61.63,32.7,-16.77,72,20,13.87
498,Hammerfest,NO,40.41,70.66,23.68,80,75,46.08
499,Banjar,ID,73.85,-7.37,108.54,96,100,1.81
500,Chicama,PE,73.4,-7.84,-79.15,83,0,9.17
501,Kota Kinabalu,MY,78.57,5.98,116.07,88,75,5.82
502,Mantua,IT,56.98,45.16,10.79,47,0,5.82
503,Huarmey,PE,68.81,-10.07,-78.15,93,10,14.43
504,Qasigiannguit,GL,28.4,68.82,-51.19,86,90,9.17
505,Tzucacab,MX,95.27,20.07,-89.05,20,0,3.74
506,Ukiah,US,65.75,39.15,-123.21,40,1,8.05
507,San Pedro,AR,68.13,-33.68,-59.66,47,0,1.99
508,Fredericton,CA,58.33,45.97,-66.65,93,90,10.29
509,Kyzyl-Suu,KG,53.87,42.34,78,57,94,12.46
510,Port Hedland,AU,71.6,-20.31,118.58,19,87,9.17
511,Peterborough,GB,55.56,52.57,-0.24,54,0,5.82
512,Bonoua,CI,84.2,5.27,-3.6,89,20,6.93
513,Glace Bay,CA,58.28,46.2,-59.96,77,75,18.34
514,Itarema,BR,78.17,-2.92,-39.92,89,100,5.73
515,Claresholm,CA,55.67,50.02,-113.58,37,40,4.7
516,Mezen,RU,40.19,65.85,44.24,88,100,15.68
517,Pangnirtung,CA,12.2,66.15,-65.72,72,5,8.05
518,Gazli,UZ,56.57,40.13,63.45,43,0,6.53
519,Temba,ZA,59.99,-25.38,28.26,58,91,4
520,Balgazyn,RU,25.97,51,95.2,57,3,5.97
521,Muros,ES,60.06,42.77,-9.06,76,0,11.41
522,Abu Dhabi,AE,87.3,24.47,54.37,30,0,6.93
523,Bermejo,AR,71.51,-22.73,-64.34,99,100,2.39
524,Ribeirao Branco,BR,67.91,-24.22,-48.77,97,100,2.42
525,Dabrowa Tarnowska,PL,51.04,50.17,20.99,63,6,8.59
526,Tangerang,ID,79.63,-6.17,106.64,74,20,8.05
527,Ursulo Galvan,MX,87.8,20.6,-97.44,45,5,5.82
528,Scarborough,GB,54.01,54.28,-0.41,57,0,5.82
529,Lukovetskiy,RU,44.6,64.29,41.92,56,40,8.95
530,Laguna,MX,86,27.52,-110.01,33,75,14.99
531,Kachug,RU,27.05,53.96,105.89,80,93,4.94
532,Sept-Iles,CA,38.14,50.2,-66.38,93,90,2.24
533,Beroroha,MG,72.41,-21.68,45.17,70,0,1.45
534,Isla Vista,US,64.9,34.41,-119.86,45,1,16.11
535,Tabuk,PH,66.29,17.41,121.44,97,66,2.93
536,Imeni Poliny Osipenko,RU,29.39,52.42,136.49,61,26,2.28
537,Santa Cruz del Sur,CU,84.83,20.71,-78,57,67,9.04
538,Hirara,JP,76.73,24.8,125.28,83,0,4.43
539,Yefremov,RU,48.11,53.14,38.12,41,0,0.58
540,Mungwi,ZM,63.95,-10.17,31.37,97,100,5.39
541,Namatanai,PG,79.07,-3.66,152.44,85,57,4.94
542,Taltal,CL,67.19,-25.41,-70.49,64,0,6.44
543,Port Arthur,US,76.59,29.9,-93.93,50,1,12.75
544,Rantepao,ID,59.09,-2.97,119.9,91,39,3.22
545,Xuanhua,CN,53.51,40.61,115.04,57,0,2.24
546,Keti Bandar,PK,78.89,24.14,67.45,86,0,11.48
547,Alenquer,BR,80.6,-1.95,-54.74,88,75,8.05
548,Plonsk,PL,46.51,52.62,20.38,81,20,10.29
549,Cobija,BR,89.6,-11.02,-68.77,66,40,9.17
550,Mnogovershinnyy,RU,27.41,53.94,139.92,91,95,5.17
551,Abu Kamal,SY,53.69,34.45,40.92,54,62,19.1
552,Eureka,US,56.61,40.8,-124.16,71,1,12.75
553,Mujiayingzi,CN,47.03,42.12,118.78,48,2,14.12
554,Tubuala,PA,85.05,9.52,-79.03,70,40,9.17
555,Yokadouma,CM,74.21,3.52,15.05,86,65,2.64
556,Hailin,CN,35.51,44.57,129.38,28,0,1.61
557,Hellvik,NO,54.12,59.92,5.78,66,0,29.97
558,High Level,CA,57.2,58.52,-117.13,17,40,9.17
559,Mackay,CA,52.7,53.65,-115.58,21,90,6.93
560,Kalmunai,LK,77.27,7.42,81.82,90,100,2.33
561,Kyabe,TD,94.73,9.45,18.94,9,0,5.28
562,Yar-Sale,RU,30.29,66.83,70.83,89,100,11.65
563,Bakchar,RU,24.71,57.02,82.07,83,0,3.89
564,Luanda,AO,82.13,-8.83,13.24,82,95,7.99
565,Springbok,ZA,64.49,-29.67,17.88,41,0,8.08
566,Altoona,US,55.13,40.52,-78.39,54,90,10.29
567,Mumford,GH,81.59,5.26,-0.76,81,100,7.52
568,Katima Mulilo,NA,68,-17.5,24.28,77,85,1.12
569,Kuteynykove,UA,47.57,47.81,38.29,44,2,8.03
570,Knokke-Heist,BE,56.62,51.33,3.33,62,0,11.41
571,Awbari,LY,82.85,26.59,12.77,9,0,21.68
572,Coihueco,CL,64.4,-36.63,-71.83,59,20,5.82
573,Praxedis Guerrero,MX,82.2,31.37,-106.02,13,1,13.87
574,Winchester,GB,56.21,51.06,-1.31,58,0,2.24
575,Diamantina,BR,72.95,-18.24,-43.6,74,100,2.04
576,Arys,KZ,50,42.43,68.8,93,90,2.24
577,Sioux Lookout,CA,57.6,50.1,-91.92,43,75,4.94
578,Mayo,CA,46.4,63.59,-135.9,28,75,12.75
579,San Mariano,PH,75.83,16.98,122.01,90,3,0.89
580,Kankon,IN,79.97,15.02,74.02,73,16,7.11
581,Bilibino,RU,4.37,68.06,166.44,79,0,3.15
582,Dudinka,RU,10.4,69.41,86.18,85,75,22.37
583,Sitka,US,90,37.17,-99.65,15,0,20
584,Narsaq,GL,41,60.91,-46.05,44,39,9.17
585,Deputatskiy,RU,13.55,69.3,139.9,97,96,4.52
586,Clyde River,CA,1.4,70.47,-68.59,70,1,10.29
587,Jumla,NP,38.75,29.28,82.18,56,8,4.34
588,Bulaevo,KZ,37.67,54.91,70.44,59,74,4.59
589,Krasnoborsk,RU,36.77,61.56,45.93,93,95,5.46
590,Nioro,GM,87.53,13.79,-15.05,22,35,14.45
591,Nacala,MZ,74.57,-14.56,40.69,85,100,7.07
592,Tala,MX,87.89,20.65,-103.7,12,20,4.7
593,Carmen,PH,76.19,7.2,124.8,84,100,1.07
594,Carahue,CL,59,-38.71,-73.16,72,20,2.24
595,Cap-aux-Meules,CA,51.8,47.38,-61.86,93,90,14.99
596,Monywa,MM,87.53,22.12,95.13,25,0,8.97
597,Mirnyy,RU,44.87,56.57,36.46,58,0,2.82
598,Vikhorevka,RU,30.06,56.12,101.17,58,100,8.95
599,Opelousas,US,76.46,30.53,-92.08,38,1,10.29
600,Steinfurt,DE,60.26,52.13,7.39,44,0,3.36
601,Eston,CA,58.39,51.15,-108.75,16,20,18.34
602,Taos,US,61.59,36.41,-105.57,24,27,17.22
603,Mbini,GQ,80.33,1.58,9.62,85,96,10.2
604,Yamada,JP,56.86,36.58,137.08,76,75,8.05
605,Puerto del Rosario,ES,66.2,28.5,-13.86,68,20,12.75
606,Marfino,RU,48.87,56.07,37.56,56,0,2.24
607,Katsina,NG,88.97,12.99,7.6,9,51,6.89
608,Tabou,CI,79.25,4.42,-7.36,85,30,3.58
609,Concordia,AR,68,-31.4,-58.02,68,0,16.11
610,Barra,GM,69.8,13.49,-16.54,83,0,10.29
611,Guane,CU,76.01,22.2,-84.09,61,0,19.39
612,Alofi,NU,78.8,-19.06,-169.92,74,75,19.46
613,Cukai,MY,76.08,4.25,103.42,100,72,1.03
614,Tsumeb,NA,68.09,-19.25,17.72,53,3,3.58
615,Shieli,KZ,45.41,44.18,66.74,64,8,4.99
616,Havoysund,NO,40.1,71,24.66,80,75,41.38
617,Waingapu,ID,75.11,-9.65,120.26,89,94,9.15
618,Makat,KZ,48.83,47.65,53.35,45,2,6.53
619,Duldurga,RU,35.33,50.67,113.59,56,100,6.51
620,Viransehir,TR,43.07,37.24,39.76,88,100,7.16
621,Gao,ML,89.69,16.28,-0.04,28,11,7.74
622,Gamba,CN,27.05,28.28,88.52,43,81,4.18
623,Machinga,MW,65.21,-15.18,35.3,75,69,4.25
624,Gagino,RU,37,54.27,39.54,46,0,3.85
625,Inta,RU,35.33,66.04,60.13,95,99,15.14
626,Egvekinot,RU,5.09,66.32,-179.17,81,91,7.94
627,Ahuimanu,US,79.9,21.44,-157.84,69,75,11.41
628,Usinsk,RU,35.33,66,57.56,99,100,15.08
629,Caririacu,BR,80.6,-7.04,-39.28,88,40,4.38
630,Katsuura,JP,61.65,33.93,134.5,93,75,6.93
631,San Lorenzo,PY,73.4,-25.34,-57.51,88,75,6.93
632,Azangaro,PE,66.2,-14.91,-70.2,34,40,3.36
633,Balikpapan,ID,70.43,-1.24,116.86,98,50,0.54
634,Truckee,US,55.26,39.33,-120.18,26,1,10.29
635,Ratnagiri,IN,82.49,16.98,73.3,78,0,13.35
636,Conway,US,80.47,35.09,-92.44,39,1,10.29
637,Shahe,CN,55.67,36.85,114.5,78,85,2.98
638,Wajir,KE,87.35,1.75,40.07,52,84,19.89
639,Sistranda,NO,46.36,63.73,8.83,87,75,13.87
640,Truth or Consequences,US,80.78,33.13,-107.25,9,1,17.22
641,Ranfurly,CA,55.49,53.41,-111.68,25,13,7.99
642,Silute,LT,43.61,55.35,21.48,84,0,9.08
643,Komsomolskiy,RU,32.99,67.55,63.78,97,100,14.58
644,Avera,US,69.44,33.19,-82.53,37,1,11.41
645,Halifax,CA,54.91,44.65,-63.58,93,90,14.99
646,Martaban,MM,80.87,16.53,97.61,85,1,4.54
647,Bilecik,TR,37.54,40.14,29.98,75,0,3.36
648,Kholuy,RU,47.75,56.58,41.87,56,37,1.81
649,Chapais,CA,50,49.78,-74.86,78,1,11.41
650,Xichang,CN,43.25,27.88,102.25,75,0,3.33
651,Yinchuan,CN,61,38.48,106.21,14,89,4
652,Port-Gentil,GA,75.2,-0.72,8.78,94,20,2.24
653,Moncton,CA,62.67,46.1,-64.8,100,90,8.05
654,Venado Tuerto,AR,68,-33.75,-61.97,20,9,4
655,Bar Harbor,US,52.18,44.39,-68.2,93,90,5.82
656,Kutum,SD,75.11,14.2,24.66,11,30,9.15
657,Makurdi,NG,90.23,7.73,8.54,37,80,4.45
658,Ketchikan,US,45.19,55.34,-131.65,93,90,23.04
659,Mabaruma,GY,86.09,8.2,-59.78,53,66,7.27
660,Barmer,IN,86.09,25.74,71.4,36,0,12.68
661,Piltene,LV,42.8,57.23,21.67,81,0,4.7
662,Hendek,TR,37.09,40.8,30.75,93,0,4.29
663,San Policarpo,PH,81.23,12.18,125.51,73,75,10.11
664,Hohhot,CN,46.4,40.81,111.65,70,0,6.71
665,Himatnagar,IN,84.2,23.6,72.96,26,0,2.24
666,Sisimiut,GL,27.05,66.94,-53.67,86,96,19.42
667,Shadrinsk,RU,40.01,56.09,63.63,78,94,6.49
668,Aska,IN,80.69,19.61,84.67,60,90,5.14
669,Fukue,JP,59.65,35.03,136.69,93,75,4.7
670,Letka,BA,54.07,43.74,17.27,71,0,3.36
671,Ziguinchor,SN,78.8,12.56,-16.27,69,0,6.93
672,Nushki,PK,80.15,29.55,66.02,14,0,5.73
673,Piacabucu,BR,79.97,-10.41,-36.43,77,100,6.33
